City ID,City,Country,Date,Lat,Lng,Max Temp (F),Humidity (%),Cloudiness (%),Wind Speed (mph)
0,Ancud,CL,1599271536,-41.87,-73.82,39.99,91,100,5.75
1,Bluff,NZ,1599271755,-46.6,168.33,52.93,68,81,10.31
2,Castro,BR,1599271755,-24.79,-50.01,61.83,79,0,6.11
3,Punta Arenas,CL,1599271756,-53.15,-70.92,37.4,86,100,5.82
4,Vanimo,PG,1599271756,-2.67,141.3,81.23,77,100,3.91
5,Belmonte,BR,1599271756,-15.86,-38.88,71.6,83,20,3.36
6,Nome,US,1599271757,64.5,-165.41,46.4,75,75,16.11
7,Yellowknife,CA,1599271757,62.46,-114.35,53.6,54,40,5.82
8,Weare,US,1599271757,43.09,-71.73,64.0,64,8,5.99
9,Taltal,CL,1599271758,-25.4,-70.48,55.29,73,6,6.15
10,Puerto Ayora,EC,1599271758,-0.74,-90.35,66.99,89,71,1.99
11,Kuril'sk,RU,1599271758,45.23,147.88,65.89,82,94,7.16
12,Kalmunai,LK,1599271759,7.42,81.82,81.81,75,87,4.47
13,Busselton,AU,1599271759,-33.65,115.33,64.99,82,95,7.0
14,Mataura,NZ,1599271536,-46.19,168.86,58.01,48,71,7.0
15,Jamestown,US,1599271516,42.1,-79.24,61.0,71,1,5.82
16,Springfield,US,1599271760,37.22,-93.3,75.2,69,1,6.93
17,Russell,US,1599271761,32.35,-85.2,89.6,83,1,3.83
18,Lagoa,PT,1599271585,39.05,-27.98,69.39,74,25,21.12
19,Atuona,PF,1599271761,-9.8,-139.03,78.69,74,8,21.63
20,Mar del Plata,AR,1599271762,-38.0,-57.56,48.0,87,87,4.7
21,Severo-Kuril'sk,RU,1599271762,50.68,156.12,55.31,70,70,3.65
22,Rikitea,PF,1599271762,-23.12,-134.97,72.05,82,100,11.45
23,Port-Gentil,GA,1599271763,-0.72,8.78,75.02,85,100,16.78
24,Avarua,CK,1599271763,-21.21,-159.78,80.6,78,0,9.17
25,Longyearbyen,SJ,1599271763,78.22,15.64,42.8,100,75,4.7
26,Port Alfred,ZA,1599271586,-33.59,26.89,62.73,81,5,20.0
27,Vaini,TO,1599271764,-21.2,-175.2,73.4,64,20,14.99
28,Namatanai,PG,1599271764,-3.67,152.43,84.76,69,98,9.46
29,Caxito,AO,1599271765,-8.58,13.66,69.8,88,75,5.82
30,Lishui,CN,1599271765,28.46,119.91,82.18,57,21,1.45
31,Bambous Virieux,MU,1599271765,-20.34,57.76,66.2,82,40,11.41
32,Nikolskoye,RU,1599271766,59.7,30.79,57.99,87,75,4.47
33,Qaanaaq,GL,1599271540,77.48,-69.36,23.05,81,0,7.54
34,Ewing,US,1599271766,40.27,-74.8,73.4,64,1,5.75
35,Władysławowo,PL,1599271767,54.79,18.4,55.99,100,100,3.36
36,Ushuaia,AR,1599271767,-54.8,-68.3,39.2,89,75,4.7
37,Fomboni,KM,1599271767,-12.28,43.74,75.36,79,44,15.82
38,Timrå,SE,1599271768,62.49,17.33,53.6,100,100,3.36
39,Provideniya,RU,1599271768,64.38,-173.3,44.06,62,59,2.77
40,Bayshore Gardens,US,1599271768,27.43,-82.59,86.0,75,20,4.83
41,Dauphin,CA,1599271769,51.15,-100.05,62.6,48,75,8.05
42,Thompson,CA,1599271769,55.74,-97.86,50.0,66,20,4.7
43,Mount Gambier,AU,1599271769,-37.83,140.77,53.6,81,40,8.05
44,Lebu,CL,1599271770,-37.62,-73.65,46.49,78,100,4.52
45,New Norfolk,AU,1599271770,-42.78,147.06,57.99,60,31,3.0
46,Hithadhoo,MV,1599271482,-0.6,73.08,82.11,78,1,16.75
47,Nyrob,RU,1599271771,60.73,56.72,43.41,94,0,1.9
48,Butaritari,KI,1599271546,3.07,172.79,83.14,73,80,10.54
49,Huilong,CN,1599271771,31.81,121.66,87.01,53,0,7.45
50,Road Town,VG,1599271772,18.42,-64.62,82.99,88,59,3.0
51,San Rafael,AR,1599271773,-34.62,-68.33,52.57,41,0,7.67
52,Bulgan,MN,1599271774,48.81,103.53,60.98,72,100,1.95
53,The Valley,AI,1599271747,18.22,-63.06,84.2,74,20,9.17
54,Lompoc,US,1599271774,34.64,-120.46,64.4,72,1,12.75
55,Kruisfontein,ZA,1599271775,-34.0,24.73,60.01,66,52,1.99
56,Hilo,US,1599271292,19.73,-155.09,87.8,52,20,8.05
57,Leningradskiy,RU,1599271775,69.38,178.42,37.47,79,100,4.32
58,Rabo de Peixe,PT,1599271776,37.8,-25.58,69.8,88,75,18.34
59,Honiara,SB,1599271776,-9.43,159.95,95.0,56,20,16.11
60,Ouro Preto do Oeste,BR,1599271776,-10.75,-62.22,82.47,35,1,2.48
61,Cape Town,ZA,1599271730,-33.93,18.42,57.0,93,75,12.75
62,Ponta do Sol,PT,1599271538,32.67,-17.1,71.6,73,40,6.93
63,Hobart,AU,1599271571,-42.88,147.33,59.0,33,20,14.99
64,Tegul'det,RU,1599271569,57.31,88.17,44.94,86,39,8.05
65,Richards Bay,ZA,1599271778,-28.78,32.04,64.98,72,0,12.53
66,Tuktoyaktuk,CA,1599271778,69.45,-133.04,42.8,75,75,10.29
67,Cayenne,GF,1599271779,4.93,-52.33,78.8,88,0,2.24
68,Faanui,PF,1599271779,-16.48,-151.75,77.58,79,19,14.88
69,Adiaké,CI,1599271779,5.29,-3.3,77.0,94,75,6.93
70,Tiksi,RU,1599271780,71.69,128.87,51.89,73,76,3.06
71,Paamiut,GL,1599271780,61.99,-49.67,46.08,87,99,26.89
72,Olafsvik,IS,1599271781,64.89,-23.71,45.66,73,100,2.95
73,Kapaa,US,1599271781,22.08,-159.32,84.2,66,20,9.17
74,Clyde River,CA,1599271781,70.47,-68.59,37.4,82,90,11.41
75,Petropavlovsk-Kamchatskiy,RU,1599271782,53.05,158.65,62.6,63,20,13.42
76,Pevek,RU,1599271544,69.7,170.31,36.27,83,100,2.98
77,Bhatkal,IN,1599271782,13.97,74.57,79.29,83,87,2.84
78,Acaraú,BR,1599271783,-2.89,-40.12,77.92,82,0,18.48
79,Excelsior Springs,US,1599271614,39.34,-94.23,71.01,72,1,3.53
80,Synya,RU,1599271783,65.37,58.04,43.36,95,5,4.72
81,Norman Wells,CA,1599271784,65.28,-126.83,53.6,71,75,3.36
82,Dunedin,NZ,1599271784,-45.87,170.5,57.99,62,27,10.0
83,Chapais,CA,1599271785,49.78,-74.85,46.4,87,75,6.93
84,Santa Vitória do Palmar,BR,1599271785,-33.52,-53.37,49.91,90,100,6.15
85,Bagua Grande,PE,1599271786,-5.76,-78.44,77.34,61,48,2.53
86,Sharjah city,AE,1599271599,25.36,55.4,89.6,51,15,3.36
87,Khandyga,RU,1599271786,62.67,135.6,65.25,49,4,3.4
88,Palmer,US,1599271612,42.16,-72.33,61.0,87,40,4.29
89,Broken Hill,AU,1599271787,-31.95,141.43,64.4,39,0,4.7
90,Ponta Delgada,PT,1599271787,37.73,-25.67,69.8,88,75,18.34
91,Saint George,US,1599271787,37.1,-113.58,107.6,5,1,4.7
92,Ugoofaaru,MV,1599271788,5.67,73.0,82.13,79,83,18.7
93,Kang,BW,1599271788,-23.68,22.79,64.87,31,0,12.12
94,Sal Rei,CV,1599271789,16.18,-22.92,78.8,83,75,5.82
95,Codrington,AU,1599271789,-38.27,141.97,56.98,68,13,6.76
96,Yanam,IN,1599271789,16.73,82.22,83.26,77,4,2.1
97,Albany,US,1599271655,42.6,-73.97,60.01,96,0,5.55
98,Saint Paul Harbor,US,1599271790,57.79,-152.41,55.4,62,40,6.93
99,Narsaq,GL,1599271593,60.92,-46.05,42.8,93,99,3.36
100,Constitución,CL,1599271792,-35.33,-72.42,48.2,83,7,2.26
101,Upernavik,GL,1599271589,72.79,-56.15,33.8,82,0,10.83
102,Hermanus,ZA,1599271792,-34.42,19.23,53.01,82,24,8.05
103,Kavaratti,IN,1599271793,10.57,72.64,81.9,80,100,7.9
104,Celestún,MX,1599271793,20.87,-90.4,81.95,81,47,14.54
105,Varhaug,NO,1599271793,58.61,5.65,51.01,99,70,8.01
106,Laguna,US,1599271794,38.42,-121.42,95.0,24,1,3.36
107,Chicama,PE,1599271794,-7.84,-79.15,60.4,81,11,5.44
108,Mehrān,IR,1599271794,33.12,46.16,68.0,13,0,4.7
109,Barrow,US,1599271502,71.29,-156.79,39.2,86,75,4.7
110,Zwedru,LR,1599271772,6.07,-8.13,70.93,98,100,1.79
111,Bredasdorp,ZA,1599271795,-34.53,20.04,53.6,81,44,9.17
112,Miepherkeim,TR,1599271796,38.14,41.01,62.6,63,0,3.36
113,Champerico,GT,1599271796,14.3,-91.92,68.0,96,100,2.64
114,Te Anau,NZ,1599271618,-45.42,167.72,54.34,55,94,7.38
115,Wilkie,CA,1599271797,52.42,-108.7,62.01,77,57,4.68
116,Ilulissat,GL,1599271797,69.22,-51.1,41.0,75,88,5.82
117,Xichang,CN,1599271798,27.9,102.26,71.76,73,96,3.36
118,Henties Bay,NA,1599271798,-22.12,14.28,54.0,89,0,5.99
119,Merauke,ID,1599271798,-8.47,140.33,83.12,66,46,12.1
120,Bowen,AU,1599271799,-20.02,148.23,77.0,57,40,13.87
121,Carnarvon,AU,1599271553,-24.87,113.63,68.0,88,0,14.99
122,Kununurra,AU,1599271800,-15.77,128.73,87.8,33,0,8.05
123,Winnemucca,US,1599271800,40.97,-117.74,100.4,5,1,3.36
124,Bitung,ID,1599271678,1.45,125.18,89.6,55,20,3.36
125,Cervo,ES,1599271801,43.67,-7.41,66.99,1,53,8.99
126,Udachny,RU,1599271801,66.42,112.4,48.2,87,0,6.71
127,Bethel,US,1599271802,41.37,-73.41,64.99,77,1,3.36
128,Arraial do Cabo,BR,1599271548,-22.97,-42.03,73.4,88,40,16.11
129,Dikson,RU,1599271803,73.51,80.55,42.04,89,100,14.32
130,Buraidah,SA,1599271509,26.33,43.98,80.6,32,0,4.7
131,Bengkulu,ID,1599271593,-3.8,102.27,81.3,75,84,3.47
132,Saint-Leu,RE,1599271804,-21.15,55.28,64.4,88,90,8.05
133,Ribeira Grande,PT,1599271804,38.52,-28.7,70.56,76,8,22.97
134,Jacareacanga,BR,1599271804,-6.22,-57.75,77.95,54,0,0.67
135,Puerto Limón,CR,1599271805,10.0,-83.03,81.3,78,53,2.86
136,San Quintín,MX,1599271572,30.48,-115.95,74.01,73,0,9.26
137,Cabo San Lucas,MX,1599271511,22.89,-109.91,87.01,62,5,9.17
138,Bharatpur,IN,1599271806,27.22,77.48,84.88,68,44,4.68
139,Saskylakh,RU,1599271806,71.92,114.08,42.08,90,100,16.6
140,Naze,JP,1599271547,28.37,129.48,78.8,100,75,14.99
141,Srednekolymsk,RU,1599271807,67.45,153.68,52.79,44,0,8.97
142,Wuwei,CN,1599271807,37.93,102.64,72.66,29,100,7.25
143,Olinda,BR,1599271794,-8.01,-34.86,78.8,65,1,10.29
144,Ahipara,NZ,1599271808,-35.17,173.17,57.06,62,95,8.7
145,Acapulco de Juárez,MX,1599271571,16.86,-99.89,78.8,74,90,9.17
146,Cherskiy,RU,1599271808,68.75,161.3,46.83,55,37,6.29
147,Port Elizabeth,ZA,1599271809,-33.92,25.57,60.8,72,0,23.04
148,Coyhaique,CL,1599271593,-45.58,-72.07,37.4,74,54,3.36
149,Alta Floresta,BR,1599271809,-9.88,-56.09,77.65,30,17,2.77
150,Batagay-Alyta,RU,1599271811,67.8,130.41,54.52,62,98,2.24
151,Nhulunbuy,AU,1599271811,-12.23,136.77,86.0,58,75,14.99
152,Abu Kamal,SY,1599271811,34.45,40.92,84.27,15,0,7.83
153,Papetoai,PF,1599271812,-17.5,-149.87,84.2,62,40,14.99
154,Egvekinot,RU,1599271812,66.32,-179.17,41.4,67,29,0.04
155,Wexford,IE,1599271813,52.33,-6.46,54.0,85,3,1.99
156,Nālūt,LY,1599271813,30.33,10.85,76.59,53,2,13.13
157,Torbay,CA,1599271578,47.67,-52.73,64.99,93,75,17.22
158,Amapá,BR,1599271814,1.0,-52.0,75.0,76,8,3.96
159,Nanticoke,US,1599271815,41.21,-76.0,64.0,85,28,7.43
160,Hervey Bay,AU,1599271815,-25.3,152.85,78.01,58,92,4.0
161,Tutóia,BR,1599271815,-2.76,-42.27,78.94,81,2,11.65
162,Meulaboh,ID,1599271816,4.14,96.13,82.9,71,100,5.61
163,Saint-Philippe,RE,1599271558,-21.36,55.77,64.4,88,90,8.05
164,Atbasar,KZ,1599271816,51.8,68.33,46.63,74,97,5.99
165,Spas-Klepiki,RU,1599271817,55.13,40.18,57.0,46,100,8.01
166,Hokitika,NZ,1599271817,-42.72,170.97,57.22,83,100,5.1
167,Mpika,ZM,1599271817,-11.83,31.45,49.26,81,0,9.08
168,Beidao,CN,1599271818,34.57,105.89,72.45,63,100,2.64
169,San-Pédro,CI,1599271818,4.75,-6.64,74.8,90,100,7.31
170,Chiredzi,ZW,1599271818,-21.05,31.67,59.7,77,0,5.68
171,Karratha,AU,1599271819,-20.74,116.85,85.51,18,48,10.22
172,Sioux Lookout,CA,1599271819,50.1,-91.92,51.8,81,40,9.17
173,Ostrovnoy,RU,1599271819,68.05,39.51,56.16,87,63,18.57
174,Bibiani,GH,1599271820,6.46,-2.32,67.84,100,41,1.63
175,Sept-Îles,CA,1599271688,50.2,-66.38,53.6,71,40,8.28
176,Kaitangata,NZ,1599271821,-46.28,169.85,57.81,50,38,7.38
177,Conakry,GN,1599271821,9.54,-13.68,77.07,83,100,3.11
178,Isetskoye,RU,1599271821,56.49,65.32,43.86,94,99,7.11
179,Kodinsk,RU,1599271822,58.69,99.18,58.87,89,100,7.47
180,Nouakchott,MR,1599271822,18.09,-15.98,81.16,88,95,15.77
181,East London,ZA,1599271822,-33.02,27.91,64.44,75,5,17.87
182,Rawson,AR,1599271823,-43.3,-65.1,43.95,65,0,7.81
183,Barcelos,PT,1599271823,41.54,-8.62,63.0,100,90,3.04
184,Plouzané,FR,1599271823,48.38,-4.62,57.2,93,75,4.7
185,Luau,AO,1599271824,-10.71,22.22,66.24,36,80,3.47
186,Brigantine,US,1599271824,39.41,-74.36,79.0,83,75,4.7
187,San Fernando del Valle de Catamarca,AR,1599271655,-28.47,-65.79,64.29,35,0,15.26
188,Cidreira,BR,1599271551,-30.18,-50.21,55.6,86,0,9.37
189,Ushtobe,KZ,1599271825,45.25,77.98,57.24,47,7,16.06
190,Esperance,AU,1599271826,-33.87,121.9,62.6,72,0,12.75
191,Murom,RU,1599271826,55.57,42.04,52.3,80,100,5.73
192,Hasaki,JP,1599271827,35.73,140.83,87.01,83,75,12.75
193,Aykhal,RU,1599271827,66.0,111.5,48.2,87,0,6.71
194,Kichmengskiy Gorodok,RU,1599271827,59.98,45.79,50.36,90,46,7.4
195,Asău,RO,1599271548,46.43,26.4,50.0,97,0,4.68
196,Oktyabr'skoye,RU,1599271828,43.06,44.74,55.4,93,100,2.24
197,Sabang,ID,1599271828,5.89,95.32,82.6,72,99,8.3
198,Cabedelo,BR,1599271829,-6.98,-34.83,71.6,94,75,5.82
199,Pisco,PE,1599271592,-13.7,-76.22,60.01,87,0,3.36
200,São José da Coroa Grande,BR,1599271830,-8.9,-35.15,73.72,80,10,10.42
201,Jalingo,NG,1599271756,8.88,11.37,72.97,90,100,5.79
202,Mehamn,NO,1599271831,71.04,27.85,55.31,83,83,14.2
203,Chui,UY,1599271831,-33.7,-53.46,49.12,89,95,5.75
204,Vetlanda,SE,1599271832,57.43,15.08,53.01,100,87,6.93
205,Mahébourg,MU,1599271832,-20.41,57.7,66.2,82,40,11.41
206,Hofn,IS,1599271832,64.25,-15.21,43.38,62,12,14.18
207,Southbridge,US,1599271689,42.08,-72.03,63.0,78,61,7.76
208,Lata,PT,1599271833,40.16,-8.33,66.99,89,0,3.06
209,Dingle,PH,1599271572,11.0,122.67,86.68,70,100,4.41
210,Japura,ID,1599271833,-0.32,102.35,79.11,84,100,2.06
211,Quartz Hill,US,1599271834,34.65,-118.22,102.2,14,1,16.11
212,Smithers,CA,1599271834,54.78,-127.17,57.2,87,90,8.05
213,Poum,NC,1599271835,-20.23,164.02,71.78,65,100,17.56
214,Chokurdakh,RU,1599271835,70.63,147.92,46.42,55,0,17.36
215,Nagato,JP,1599271835,34.38,131.2,79.0,78,75,8.05
216,Vostok,RU,1599271570,46.49,135.88,72.86,47,0,5.17
217,Rodolfo Sánchez Taboada,MX,1599271836,31.72,-116.57,71.01,88,42,4.68
218,Bilibino,RU,1599271836,68.05,166.44,42.03,62,32,2.08
219,Agadez,NE,1599271837,19.75,10.25,87.73,33,0,9.33
220,Téra,NE,1599271837,14.01,0.75,83.89,64,50,11.77
221,Areosa,PT,1599271838,41.72,-8.86,69.01,100,90,5.39
222,Fare,PF,1599271838,-16.7,-151.02,78.35,75,15,12.64
223,Springbok,ZA,1599271838,-29.66,17.89,46.96,75,98,1.72
224,Zadar,HR,1599271839,44.12,15.24,55.4,93,0,5.82
225,Waddān,LY,1599271839,29.16,16.14,73.74,70,0,8.37
226,Grindavik,IS,1599271840,63.84,-22.43,41.0,75,100,5.82
227,Northam,GB,1599271840,51.03,-4.22,57.99,82,0,5.99
228,Örnsköldsvik,SE,1599271840,63.29,18.72,57.2,100,100,6.93
229,Gornyye Klyuchi,RU,1599271841,45.25,133.5,75.65,57,0,7.63
230,Tasiilaq,GL,1599271841,65.61,-37.64,31.75,91,47,5.03
231,Anderson,US,1599271777,34.53,-82.65,82.4,69,1,3.36
232,Hambantota,LK,1599271842,6.12,81.12,75.2,100,20,3.36
233,Jimo,CN,1599271842,36.39,120.46,82.4,65,0,15.66
234,Zeya,RU,1599271842,53.75,127.27,56.77,93,100,6.46
235,Aklavik,CA,1599271843,68.22,-135.01,51.8,53,40,9.17
236,Salé,MA,1599271843,34.04,-6.82,70.0,100,0,8.93
237,Khatanga,RU,1599271843,71.97,102.5,43.02,73,87,7.87
238,Río Esteban,HN,1599271844,15.83,-86.3,79.16,85,83,3.83
239,Oranjemund,NA,1599271844,-28.55,16.43,55.45,84,48,6.35
240,Mount Isa,AU,1599271844,-20.73,139.5,86.0,20,28,9.17
241,Novopokrovka,UA,1599271845,49.84,36.55,68.0,30,100,13.42
242,Dwārka,IN,1599271845,22.24,68.97,82.2,76,17,6.53
243,Abu Samrah,SY,1599271845,35.3,37.18,77.25,28,0,4.52
244,Butembo,CD,1599271846,0.15,29.28,57.54,93,65,2.35
245,São Filipe,CV,1599271846,14.9,-24.5,79.81,83,76,17.13
246,Zhigansk,RU,1599271846,66.77,123.37,48.65,93,100,0.22
247,Dromolaxia,CY,1599271847,34.88,33.59,78.8,88,20,4.7
248,Maridi,SS,1599271847,4.92,29.47,65.95,96,10,4.23
249,Nemuro,JP,1599271847,43.32,145.57,71.6,88,75,8.05
250,Viedma,AR,1599271596,-40.81,-63.0,39.99,85,100,5.46
251,Tilichiki,RU,1599271849,60.47,166.1,49.57,53,0,13.11
252,Poya,NC,1599271849,-21.35,165.15,72.79,53,75,7.9
253,Arbagar,RU,1599271850,51.94,116.28,59.31,82,97,10.07
254,Padang,ID,1599271850,-0.95,100.35,77.61,82,100,0.85
255,Hamilton,US,1599271850,39.18,-84.53,70.0,46,20,8.05
256,Shimoda,JP,1599271851,34.67,138.95,82.99,83,20,13.87
257,Khovu-Aksy,RU,1599271851,51.13,93.6,46.04,80,96,7.96
258,Belaya Gora,RU,1599271851,68.53,146.42,48.07,52,100,10.54
259,Vila Franca do Campo,PT,1599271852,37.72,-25.43,69.8,88,75,18.34
260,Porbandar,IN,1599271852,21.64,69.61,81.68,80,58,5.35
261,Sarangani,PH,1599271852,5.4,125.46,83.64,71,1,2.95
262,Bonavista,CA,1599271853,48.65,-53.11,61.92,89,2,18.99
263,Tottori-shi,JP,1599271853,35.5,134.23,82.4,78,40,4.7
264,Benemérito de las Américas,MX,1599271854,16.52,-90.64,74.61,96,95,2.64
265,Puerto Carreño,CO,1599271854,6.19,-67.49,79.54,80,97,4.94
266,Hobyo,SO,1599271854,5.35,48.53,76.42,77,97,22.84
267,Galle,LK,1599271855,6.04,80.22,81.14,83,28,5.46
268,Maraã,BR,1599271855,-1.83,-65.37,77.81,76,38,2.19
269,Buchanan,LR,1599271855,5.88,-10.05,76.68,87,85,4.29
270,Cheb,CZ,1599271856,50.08,12.37,63.0,95,46,3.78
271,Guia Lopes da Laguna,BR,1599271856,-21.46,-56.11,75.42,39,0,3.31
272,Zhuhai,CN,1599271856,22.28,113.57,84.0,83,40,8.05
273,Drexel Heights,US,1599271857,32.14,-111.03,105.8,10,1,6.93
274,Yar-Sale,RU,1599271857,66.83,70.83,41.58,83,14,11.72
275,Flinders,AU,1599271857,-34.58,150.86,70.0,40,0,7.0
276,Namtsy,RU,1599271858,62.72,129.67,62.6,55,0,4.47
277,Nurota,UZ,1599271858,40.56,65.69,66.2,45,0,6.93
278,Tautira,PF,1599271576,-17.73,-149.15,84.2,62,40,14.99
279,Kibala,TD,1599271859,9.11,18.35,71.58,96,100,1.3
280,Touros,BR,1599271859,-5.2,-35.46,71.6,88,20,3.36
281,Channel-Port aux Basques,CA,1599271860,47.57,-59.14,62.56,91,65,5.66
282,Saint Anthony,US,1599271601,45.02,-93.22,68.0,55,1,2.21
283,Kavieng,PG,1599271860,-2.57,150.8,84.04,75,100,12.71
284,Marfino,RU,1599271861,55.7,37.38,61.0,58,100,4.47
285,Ellensburg,US,1599271861,47.0,-120.55,91.4,21,20,3.89
286,Auki,SB,1599271861,-8.77,160.7,86.68,64,2,5.35
287,Souillac,MU,1599271862,-20.52,57.52,66.2,88,75,17.22
288,Geraldton,AU,1599271862,-28.77,114.6,60.8,77,0,4.7
289,Berdigestyakh,RU,1599271863,62.1,126.7,63.68,59,3,5.28
290,Garoowe,SO,1599271863,8.41,48.48,72.88,65,0,22.91
291,Zhaotong,CN,1599271863,27.32,103.72,66.25,83,100,1.77
292,Maceió,BR,1599271864,-9.67,-35.74,71.6,88,40,3.36
293,Atasū,KZ,1599271864,48.68,71.64,46.94,58,98,6.42
294,Saldanha,ZA,1599271864,-33.01,17.94,55.4,93,62,3.36
295,Primorka,RU,1599271865,47.28,39.06,70.32,31,100,17.18
296,Santa Clara,CU,1599271865,22.4,-79.97,80.6,88,20,8.05
297,Son La,VN,1599271865,21.32,103.9,83.03,68,25,0.11
298,Gnojnica,BA,1599271866,44.62,18.45,48.2,93,0,1.12
299,Vangaindrano,MG,1599271866,-23.35,47.6,62.71,84,81,7.63
300,Fortuna,US,1599271867,40.6,-124.16,68.0,59,1,11.41
301,Port Hardy,CA,1599271868,50.7,-127.42,62.6,82,40,2.24
302,Port Macquarie,AU,1599271868,-31.43,152.92,75.0,71,99,1.99
303,Vilyuysk,RU,1599271868,63.76,121.62,55.63,85,98,3.91
304,Klaksvík,FO,1599271869,62.23,-6.59,46.4,93,100,25.28
305,Krotovka,RU,1599271869,53.29,51.17,45.21,76,0,6.69
306,Dolzhanskaya,RU,1599271870,46.63,37.8,72.0,100,49,25.99
307,Caceres,ES,1599271870,39.52,-6.37,73.0,39,0,1.41
308,Kamenka,RU,1599271870,51.32,42.77,46.99,73,86,8.7
309,Fengcheng,CN,1599271871,40.45,124.07,72.91,73,1,8.72
310,Qeshm,IR,1599271616,26.96,56.27,82.4,61,5,6.93
311,Katsuura,JP,1599271871,35.13,140.3,87.01,79,75,4.7
312,Anadyr,RU,1599271872,64.75,177.48,48.2,61,75,6.71
313,Dhidhdhoo,MV,1599271872,6.88,73.1,82.42,80,89,15.84
314,Egham,GB,1599271872,51.43,-0.55,55.4,93,49,6.93
315,Mbandaka,CD,1599271873,0.05,18.26,71.37,81,55,3.18
316,Prado,BR,1599271873,-17.34,-39.22,71.44,85,42,4.9
317,Srandakan,ID,1599271874,-7.94,110.25,82.26,62,21,11.52
318,Piteå,SE,1599271874,65.32,21.48,55.4,93,68,5.82
319,Ust-Tsilma,RU,1599271875,65.44,52.15,46.54,92,1,5.75
320,Almaznyy,RU,1599271875,48.04,40.05,68.0,30,100,17.9
321,Kurovskoye,RU,1599271875,55.58,38.91,57.2,81,99,6.71
322,Ouahigouya,BF,1599271876,13.58,-2.42,78.93,77,98,6.17
323,Bemidji,US,1599271800,47.47,-94.88,55.4,76,1,3.36
324,Samarai,PG,1599271876,-10.62,150.67,78.39,86,80,13.4
325,Salalah,OM,1599271877,17.02,54.09,78.8,83,75,3.36
326,Sørland,NO,1599271877,67.67,12.69,54.95,84,13,12.3
327,Tazovsky,RU,1599271877,67.47,78.7,41.18,79,0,19.06
328,Dongsheng,CN,1599271878,39.82,109.98,72.48,22,87,13.98
329,Abu Dhabi,AE,1599271689,24.47,54.37,87.8,79,0,8.05
330,Santiago,CL,1599271653,-33.46,-70.65,51.01,81,13,11.41
331,Verkhniy Lomov,RU,1599271878,53.47,43.55,50.65,76,100,4.88
332,Bokaro Steel City,IN,1599271879,23.78,85.97,84.25,72,5,3.94
333,Bojnourd,IR,1599271879,37.47,57.33,57.2,47,0,2.24
334,Balkhash,KZ,1599271879,46.84,74.98,54.37,47,10,13.82
335,Betanzos,ES,1599271880,43.28,-8.21,66.0,100,75,4.7
336,Barguzin,RU,1599271880,53.62,109.62,64.33,66,100,3.06
337,Alofi,NU,1599271880,-19.06,-169.92,75.2,60,90,11.41
338,Guerrero Negro,MX,1599271881,27.98,-114.06,74.68,74,0,16.4
339,Waipawa,NZ,1599271881,-41.41,175.52,59.0,82,48,18.34
340,Atar,MR,1599271882,20.52,-13.05,89.2,41,99,10.51
341,Pangai,TO,1599271882,-19.8,-174.35,77.0,61,20,11.41
342,George Town,MY,1599271812,5.41,100.34,82.4,88,20,1.12
343,Sitka,US,1599271883,57.05,-135.33,59.0,77,90,10.29
344,San Cristobal,VE,1599271883,7.77,-72.22,82.4,69,40,3.36
345,São Mateus,BR,1599271883,-18.72,-39.86,70.79,86,0,5.88
346,High Rock,BS,1599271884,26.62,-78.28,84.76,76,44,12.5
347,Bar Harbor,US,1599271884,44.39,-68.2,66.2,52,1,4.7
348,Polyarny,RU,1599271885,69.2,33.45,53.6,93,40,6.71
349,Bandarbeyla,SO,1599271885,9.49,50.81,74.88,78,80,22.17
350,Tuatapere,NZ,1599271839,-46.13,167.68,57.16,53,90,3.36
351,Maniitsoq,GL,1599271887,65.42,-52.9,47.05,93,100,9.51
352,Lavrentiya,RU,1599271887,65.58,-171.0,44.83,63,34,10.54
353,Pimentel,PE,1599271887,-6.84,-79.93,59.74,88,0,12.01
354,Rocha,UY,1599271888,-34.48,-54.33,44.53,84,100,0.34
355,Wilmington,US,1599271794,34.23,-77.94,84.2,74,20,8.05
356,Davila,PH,1599271888,18.47,120.58,86.0,79,40,3.36
357,Alta,NO,1599271889,69.97,23.27,57.2,87,100,13.87
358,Saint-Pierre,RE,1599271889,-21.34,55.48,66.2,88,75,20.8
359,Jiuquan,CN,1599271889,39.74,98.52,70.97,27,100,4.32
360,Viseu,PT,1599271890,40.66,-7.91,66.99,43,0,3.0
361,Ciudad Bolivar,VE,1599271890,8.12,-63.55,81.03,68,100,5.41
362,Kenai,US,1599271890,60.55,-151.26,57.99,54,90,5.82
363,Patacamaya,BO,1599271891,-17.23,-67.92,44.31,75,53,9.84
364,Wellington,NZ,1599271727,-41.29,174.78,59.0,82,92,18.34
365,Mvuma,ZW,1599271891,-19.28,30.53,51.8,76,0,9.06
366,Aksarka,RU,1599271892,66.56,67.8,39.43,83,25,5.73
367,Surab,PK,1599271892,28.49,66.26,69.22,24,45,3.42
368,Aleksandrov Gay,RU,1599271893,50.15,48.57,56.82,48,88,8.57
369,Bloomfield,US,1599271893,40.81,-74.19,78.8,56,1,6.15
370,Waitati,NZ,1599271747,-45.75,170.57,57.99,62,49,10.0
371,Henderson,US,1599271847,36.04,-114.98,107.6,7,1,2.44
372,Krasnoarmeysk,RU,1599271894,51.02,45.7,55.99,46,78,8.01
373,Timiryazevskiy,RU,1599271895,56.49,84.88,46.0,93,75,8.95
374,Mayumba,GA,1599271895,-3.43,10.66,73.02,88,8,7.4
375,San Patricio,MX,1599271895,19.22,-104.7,86.0,74,40,11.41
376,Cockburn Town,TC,1599271896,21.46,-71.14,83.53,77,95,17.87
377,Evensk,RU,1599271896,61.95,159.23,52.5,45,0,6.02
378,Kosa,RU,1599271896,59.94,55.0,43.3,96,0,3.09
379,Angoche,MZ,1599271897,-16.23,39.91,71.37,69,89,13.18
380,Kaeo,NZ,1599271897,-35.1,173.78,58.35,60,81,7.78
381,Dandeli,IN,1599271898,15.27,74.62,75.2,88,75,3.36
382,Yaan,NG,1599271898,7.38,8.57,72.03,97,100,7.4
383,Emba,KZ,1599271898,48.83,58.14,53.51,43,0,4.21
384,Puerto Escondido,MX,1599271899,15.85,-97.07,78.84,82,100,2.8
385,Airai,TL,1599271899,-8.93,125.41,76.96,37,0,5.14
386,Bahādurganj,IN,1599271899,26.27,87.82,86.65,69,67,1.57
387,Lubbock,US,1599271681,33.6,-101.83,84.2,45,20,11.41
388,Bako,ET,1599271900,5.78,36.57,64.8,81,100,2.71
389,Mogadishu,SO,1599271900,2.04,45.34,76.3,77,60,15.95
390,Assiut,EG,1599271901,27.18,31.18,77.0,47,37,6.93
391,Kiryat Gat,IL,1599271622,31.61,34.76,84.0,80,0,1.83
392,Fairbanks,US,1599271720,64.84,-147.72,51.8,87,90,8.05
393,Adrar,MR,1599271902,20.5,-10.07,92.25,34,31,8.21
394,Kargil,IN,1599271902,34.57,76.1,54.19,49,6,3.98
395,Beringovskiy,RU,1599271903,63.05,179.32,46.02,70,100,15.19
396,Iqaluit,CA,1599271903,63.75,-68.51,41.0,65,75,4.59
397,Gualeguaychú,AR,1599271857,-33.01,-58.52,50.0,84,100,1.99
398,Cap Malheureux,MU,1599271903,-19.98,57.61,66.2,88,75,17.22
399,Kortkeros,RU,1599271904,61.81,51.58,39.2,100,20,2.24
400,Tra Vinh,VN,1599271905,9.93,106.35,88.36,62,100,1.3
401,Reshetnikovo,RU,1599271906,56.45,36.57,59.05,68,100,5.97
402,Ampanihy,MG,1599271906,-24.7,44.75,57.11,79,0,11.88
403,Kaili,ID,1599271906,-3.46,120.21,80.8,61,32,3.67
404,Sur,OM,1599271907,22.57,59.53,78.85,60,0,8.14
405,Chinhoyi,ZW,1599271907,-17.37,30.2,50.25,72,0,4.34
406,Awjilah,LY,1599271907,29.11,21.29,76.39,46,0,9.28
407,Aswān,EG,1599271908,24.09,32.91,88.63,20,25,7.2
408,Krasnokholmskiy,RU,1599271908,55.99,55.05,43.02,89,0,3.76
409,Ketchikan,US,1599271908,55.34,-131.65,55.4,100,90,5.82
410,Halifax,CA,1599271882,44.65,-63.57,66.0,99,88,5.48
411,Laramie,US,1599271691,41.31,-105.59,77.0,12,1,5.82
412,Pingzhuang,CN,1599271909,42.04,119.29,70.99,50,0,6.93
413,Mandalgovi,MN,1599271909,45.76,106.27,67.24,32,100,9.86
414,Salem,IN,1599271887,11.65,78.17,77.0,83,75,2.13
415,Barra do Garças,BR,1599271910,-15.89,-52.26,77.0,47,5,1.83
416,Mossamedes,AO,1599271911,-15.2,12.15,61.92,75,10,4.76
417,Hong Kong,HK,1599271874,22.29,114.16,84.99,78,40,5.82
418,City of San Pedro,PH,1599271911,14.35,121.02,89.01,70,85,2.24
419,Kieta,PG,1599271912,-6.22,155.63,85.57,64,14,6.11
420,Yumen,CN,1599271912,40.28,97.2,68.29,34,100,13.49
421,Leh,IN,1599271912,34.17,77.58,53.6,48,1,3.89
422,Ürümqi,CN,1599271827,43.8,87.6,79.0,40,2,4.47
423,Xinmin,CN,1599271913,41.99,122.83,77.0,61,0,13.42
424,Pervomayskoye,RU,1599271913,43.92,46.71,63.7,87,0,6.11
425,Mocuba,MZ,1599271914,-16.84,36.99,65.08,85,50,4.14
426,Zharkovskiy,RU,1599271914,55.85,32.27,51.37,96,40,3.04
427,Boa Vista,BR,1599271883,2.82,-60.67,84.2,66,88,2.24
428,Rio de Janeiro,BR,1599271874,-22.9,-43.21,75.2,73,20,3.36
429,Tuy Hoa,VN,1599271915,13.08,109.3,87.42,63,6,4.25
430,Westport,US,1599271915,41.14,-73.36,75.2,44,1,8.05
431,Morondava,MG,1599271915,-20.28,44.28,68.11,56,0,14.81
432,Maracás,BR,1599271916,-13.44,-40.43,59.2,91,17,9.78
433,Lékoni,GA,1599271916,-1.58,14.26,72.18,81,24,6.98
434,Inongo,CD,1599271916,-1.95,18.27,70.25,84,0,4.65
435,Sucúa,EC,1599271917,-2.47,-78.17,66.04,79,43,3.65
436,Bonthe,SL,1599271917,7.53,-12.51,76.77,89,100,4.88
437,Neuquén,AR,1599271917,-38.95,-68.06,51.8,40,100,5.82
438,Zhanjiang,CN,1599271918,21.28,110.34,86.94,69,9,4.41
439,Ust-Maya,RU,1599271918,60.42,134.53,50.97,94,100,8.77
440,Lucea,JM,1599271918,18.45,-78.17,82.4,78,20,8.05
441,Santa Cruz,MA,1599271919,30.42,-9.6,68.0,82,0,6.93
442,Kunduz,AF,1599271919,36.73,68.86,71.96,24,0,1.61
443,Lingao,CN,1599271920,19.91,109.69,85.73,69,59,4.07
444,Dudinka,RU,1599271920,69.41,86.18,37.4,86,40,13.42
445,Caravelas,BR,1599271920,-17.71,-39.25,70.56,89,41,3.98
446,‘Āhuimanu,US,1599271730,21.44,-157.84,89.6,61,75,10.29
447,Banjar,ID,1599271921,-8.19,114.97,86.0,74,40,10.29
448,Poli,TZ,1599271921,-3.33,36.8,64.4,100,75,5.82
449,Puerto Madryn,AR,1599271793,-42.77,-65.04,45.21,67,0,8.01
450,Mopti,ML,1599271923,14.67,-4.0,81.0,73,67,9.51
451,Banda Aceh,ID,1599271923,5.56,95.32,83.82,69,91,8.39
452,Kota Tinggi,MY,1599271924,1.74,103.9,77.0,94,75,1.12
453,Ca Mau,VN,1599271725,9.18,105.15,89.02,60,99,2.93
454,Creel,MX,1599271924,27.75,-107.63,61.34,51,11,9.48
455,Makkah al Mukarramah,SA,1599271681,21.43,39.83,86.7,30,1,2.06
456,Nyurba,RU,1599271925,63.28,118.33,63.9,68,43,3.87
457,Noumea,NC,1599271635,-22.28,166.46,75.0,60,75,6.93
458,Korla,CN,1599271926,41.76,86.15,74.88,23,25,10.89
459,Kerema,PG,1599271926,-7.96,145.78,81.23,76,59,6.35
460,Tezu,IN,1599271926,27.92,96.17,83.53,64,91,1.88
461,Itarema,BR,1599271927,-2.92,-39.92,78.04,81,0,18.01
462,Santiago de Cao,PE,1599271927,-7.96,-79.24,59.47,89,11,10.98
463,Langsa,ID,1599271810,4.47,97.97,83.41,73,94,3.15
464,Yulara,AU,1599271928,-25.24,130.99,75.2,19,0,19.46
465,Muisne,EC,1599271928,0.6,-80.03,72.91,87,96,10.45
466,Kahului,US,1599271928,20.89,-156.47,89.6,46,1,23.04
467,Tiznit Province,MA,1599271929,29.58,-9.5,76.19,55,0,1.07
468,Kiama,AU,1599271930,-34.68,150.87,70.0,40,0,7.0
469,Wencheng,CN,1599271930,33.06,113.8,83.48,51,58,5.44
470,Mwene-Ditu,CD,1599271930,-7.0,23.45,69.51,48,60,3.0
471,Rosário do Sul,BR,1599271931,-30.26,-54.91,50.56,88,30,8.52
472,Tsabong,BW,1599271931,-26.02,22.4,65.03,37,73,3.04
473,Taoudenni,ML,1599271931,22.68,-3.98,90.73,40,86,4.68
474,Maningrida,AU,1599271932,-12.07,134.27,85.42,47,0,12.93
475,Lokhvytsya,UA,1599271803,50.37,33.26,62.24,87,100,7.67
476,Tahoua,NE,1599271932,14.89,5.27,82.6,62,85,7.76
477,Portland,US,1599271715,45.52,-122.68,86.0,37,20,3.36
478,Nichinan,JP,1599271933,31.6,131.37,80.6,88,75,13.87
479,Vermilion,US,1599271933,40.17,-87.75,62.01,93,1,3.8
480,Kanigoro,ID,1599271934,-8.13,112.22,83.77,54,5,9.78
481,Kogon,UZ,1599271934,39.72,64.55,62.6,59,0,6.93
482,Half Moon Bay,US,1599271934,37.46,-122.43,77.0,72,1,10.29
483,Soloneshnoye,RU,1599271935,51.65,84.32,46.18,73,19,7.74
484,Rehoboth,NA,1599271935,-23.32,17.08,63.28,60,95,5.57
485,Ikom,NG,1599271935,5.97,8.71,72.55,97,100,3.02
486,Dawei,MM,1599271936,14.08,98.2,84.15,76,95,2.15
487,Newport,GB,1599271790,51.59,-3.0,57.0,87,0,1.01
488,Ponnāni,IN,1599271650,10.77,75.93,77.0,94,75,3.36
489,Marzuq,YE,1599271937,14.4,46.47,77.22,46,20,1.74
490,Inhambane,MZ,1599271937,-23.86,35.38,69.46,66,100,10.6
491,Tudela,ES,1599271938,42.06,-1.6,68.0,60,0,12.75
492,Mansôa,GW,1599271938,12.07,-15.32,75.52,92,100,5.75
493,Sibu,MY,1599271938,2.3,111.82,75.2,100,40,2.24
494,Sittwe,MM,1599271818,20.15,92.9,83.8,80,63,7.83
495,Erzin,TR,1599271939,36.96,36.2,80.01,82,0,10.0
496,Iringa,TZ,1599271939,-7.77,35.7,64.4,52,5,5.82
497,Luanda,AO,1599271940,-8.84,13.23,69.8,88,75,5.82
498,Itanagar,IN,1599271940,27.1,93.62,80.58,73,100,1.57
499,Bakloh,IN,1599271940,32.47,75.92,70.41,82,11,2.44
500,Los Llanos de Aridane,ES,1599271942,28.66,-17.92,73.4,78,0,2.24
501,Zhangaözen,KZ,1599271942,43.3,52.8,69.08,42,68,12.15
502,Marawi,PH,1599271942,8.0,124.29,84.0,80,17,5.99
503,Burley,US,1599271943,42.54,-113.79,91.4,19,1,3.36
504,Ginda,IN,1599271943,30.69,78.49,78.8,88,20,0.18
505,Jalu,LY,1599271943,29.03,21.55,76.15,50,0,9.26
506,Limbdi,IN,1599271944,22.57,71.8,84.04,73,73,3.29
507,Marrakesh,MA,1599271817,31.63,-8.01,78.8,50,0,2.24
508,Muroto-misakicho,JP,1599271944,33.28,134.15,87.8,62,75,4.7
509,Dombarovskiy,RU,1599271945,50.76,59.54,51.17,53,54,6.73
510,Port Moresby,PG,1599271945,-9.44,147.18,82.31,72,24,12.8
511,Hammerfest,NO,1599271945,70.66,23.68,53.6,93,100,8.05
512,Sembakung,ID,1599271946,3.82,117.25,89.2,60,14,2.71
513,Verkhnedneprovskiy,RU,1599271946,54.98,33.35,56.8,97,100,3.42
514,Puro,PH,1599271946,12.48,123.38,87.06,67,92,5.93
515,Raja,SS,1599271947,8.46,25.68,68.72,96,100,3.76
516,Erenhot,CN,1599271947,43.65,111.98,67.62,35,75,2.59
517,Kalininsk,RU,1599271948,51.5,44.48,49.59,61,100,7.38
518,Kulpahār,IN,1599271948,25.32,79.65,82.02,77,0,6.71
519,Glen Cove,US,1599271751,40.86,-73.63,73.99,68,45,1.01
520,Yuci,CN,1599271949,37.68,112.73,69.8,49,100,2.24
521,Washougal,US,1599271949,45.58,-122.35,87.8,33,1,4.7
522,Kirakira,SB,1599271949,-10.45,161.92,82.38,77,100,13.76
523,Baykit,RU,1599271950,61.67,96.37,59.25,82,100,1.01
524,Bartica,GY,1599271950,6.4,-58.62,74.86,97,100,2.98
525,Leticia,CO,1599271950,-4.22,-69.94,78.8,100,8,1.68
526,Staryy Nadym,RU,1599271951,65.61,72.68,42.4,78,0,19.01
527,Pecos,US,1599271951,31.42,-103.49,89.6,25,1,11.41
528,Dandong,CN,1599271662,40.13,124.39,73.09,77,0,10.6
529,Hay River,CA,1599271952,60.82,-115.8,53.6,71,75,14.99
530,Parnarama,BR,1599271952,-5.68,-43.09,76.95,43,4,2.17
531,Samarkand,UZ,1599271952,39.65,66.96,64.4,48,0,4.7
532,Avera,US,1599271953,33.19,-82.53,82.4,83,1,3.02
533,Nanganga,TZ,1599271953,-10.38,39.15,65.59,86,39,4.0
534,Spencer,US,1599271953,43.14,-95.14,66.0,62,0,1.99
535,Bubaque,GW,1599271954,11.28,-15.83,79.45,82,99,12.77
536,Bariloche,AR,1599271954,-41.15,-71.31,37.4,55,100,8.05
537,Labuhan,ID,1599271954,-6.88,112.21,83.91,66,12,4.36
538,Chifeng,CN,1599271809,42.27,118.96,70.52,48,1,7.18
539,Kutum,SD,1599271955,14.2,24.67,76.19,62,97,5.14
540,Margate,GB,1599271955,51.38,1.39,61.0,73,100,1.99
541,Stuttgart,DE,1599271813,48.78,9.18,60.01,87,0,2.24
542,Upata,VE,1599271956,8.01,-62.4,72.09,94,100,4.0
543,Havre-St-Pierre,CA,1599271957,50.23,-63.6,53.6,76,1,8.05
544,Najrān,SA,1599271957,17.49,44.13,73.4,31,0,4.29
545,São João da Barra,BR,1599271957,-21.64,-41.05,72.68,83,2,15.64
546,Rosarito,MX,1599271958,32.33,-117.03,82.4,69,1,4.7
547,Hualmay,PE,1599271958,-11.1,-77.61,59.4,84,9,6.78
548,Bhīnmāl,IN,1599271959,25.0,72.25,81.48,76,50,9.46
549,Kumylzhenskaya,RU,1599271959,49.88,42.59,53.01,61,55,1.99
550,Lárdos,GR,1599271960,36.09,28.02,82.4,61,0,11.41
551,Vila Velha,BR,1599271961,-20.33,-40.29,73.99,78,0,11.41
552,Kapuvár,HU,1599271961,47.59,17.03,57.99,87,0,4.7
